{
"type": "FeatureCollection",
"name": "Bike_Shops",
"crs": { "type": "name", "properties": { "name": "urn:ogc:def:crs:OGC:1.3:CRS84" } },
"features": [
{ "type": "Feature", "properties": { "fid": 1, "OBJECTID": 1, "Name": "The Sacred Ride", "StreetAddress": "213 Baker St.", "City": "Nelson", "Province": "BC", "PostalCode": "V1L 4H4", "PhoneNumber": "(250) 354-3831", "URL": "https://www.sacredride.ca" }, "geometry": { "type": "Point", "coordinates": [ -117.297956942226648, 49.490720026249306, 0.0 ] } },
{ "type": "Feature", "properties": { "fid": 2, "OBJECTID": 2, "Name": "Gerick Cycle and Ski", "StreetAddress": "702 Baker St.", "City": "Nelson", "Province": "BC", "PostalCode": "V1L 4J6", "PhoneNumber": "(250) 354-4622", "URL": "https://www.gericks.com" }, "geometry": { "type": "Point", "coordinates": [ -117.290966930015372, 49.492983453396633, 0.0 ] } },
{ "type": "Feature", "properties": { "fid": 3, "OBJECTID": 3, "Name": "Cycology Bikes Inc.", "StreetAddress": "926 Columbia Ave.", "City": "Castlegar", "Province": "BC", "PostalCode": "V1N 1H2", "PhoneNumber": "(778) 460-2453", "URL": "https://www.cycologybikes.ca" }, "geometry": { "type": "Point", "coordinates": [ -117.664235982935878, 49.315619130895669, 0.0 ] } },
{ "type": "Feature", "properties": { "fid": 4, "OBJECTID": 4, "Name": "Canadian Tire - Castlegar", "StreetAddress": "2000 Columbia Ave.", "City": "Castlegar", "Province": "BC", "PostalCode": "V1N 2W7", "PhoneNumber": "(250) 365-7737", "URL": "https://www.canadiantire.ca" }, "geometry": { "type": "Point", "coordinates": [ -117.654251991883811, 49.294433377778724, 0.0 ] } },
{ "type": "Feature", "properties": { "fid": 5, "OBJECTID": 5, "Name": "Revolution Cycles", "StreetAddress": "1990 Columbia Ave.", "City": "Rossland", "Province": "BC", "PostalCode": "V0G 1Y0", "PhoneNumber": "(250) 362-5688", "URL": "https://www.revolutioncycles.ca" }, "geometry": { "type": "Point", "coordinates": [ -117.800426886181697, 49.077143950134698, 0.0 ] } },
{ "type": "Feature", "properties": { "fid": 6, "OBJECTID": 6, "Name": "Gericks Cycle & Sports", "StreetAddress": "930 Rossland Ave.", "City": "Trail", "Province": "BC", "PostalCode": "V1R 3N6", "PhoneNumber": "(250) 364-1661", "URL": "https://www.gerick.ca" }, "geometry": { "type": "Point", "coordinates": [ -117.71586205092315, 49.09640328722039, 0.0 ] } },
{ "type": "Feature", "properties": { "fid": 7, "OBJECTID": 7, "Name": "Canadian Tire - Trail", "StreetAddress": "8238 BC-3B", "City": "Trail", "Province": "BC", "PostalCode": "V1R 4W4", "PhoneNumber": "(250) 364-3333", "URL": "https://www.canadiantire.ca" }, "geometry": { "type": "Point", "coordinates": [ -117.627025077006621, 49.088908783824472, 0.0 ] } },
{ "type": "Feature", "properties": { "fid": 8, "OBJECTID": 9, "Name": "Summit Cycles and Sports", "StreetAddress": "1021 Canyon St.", "City": "Ceston", "Province": "BC", "PostalCode": "V0B 1G5", "PhoneNumber": "(250) 428-2630", "URL": "https://www.summitcycles.ca" }, "geometry": { "type": "Point", "coordinates": [ -116.512363379259298, 49.095358760654065, 0.0 ] } },
{ "type": "Feature", "properties": { "fid": 9, "OBJECTID": 10, "Name": "Wildways Adventure Sports", "StreetAddress": "1925 Crownest Hwy.", "City": "Christina Lake", "Province": "BC", "PostalCode": "V0H 1E2", "PhoneNumber": "(250) 447-6561", "URL": "https://www.wildways.com" }, "geometry": { "type": "Point", "coordinates": [ -118.213656747117952, 49.055015275882297, 0.0 ] } },
{ "type": "Feature", "properties": { "fid": 10, "OBJECTID": 11, "Name": "Seasons Outdoors", "StreetAddress": "236 Market Ave.", "City": "Grand Forks", "Province": "BC", "PostalCode": "V0H 1H0", "PhoneNumber": "(250) 442-2691", "URL": "https://www.seasonsoutdoors.ca" }, "geometry": { "type": "Point", "coordinates": [ -118.437296087565812, 49.032378281758852, 0.0 ] } },
{ "type": "Feature", "properties": { "fid": 11, "OBJECTID": 12, "Name": "Shon's Bike - Ski - Stay", "StreetAddress": "204 Broadway St. W.", "City": "Nakusp", "Province": "BC", "PostalCode": "V0G 1R0", "PhoneNumber": "(250) 265-3332", "URL": null }, "geometry": { "type": "Point", "coordinates": [ -117.80029607171339, 50.238544587703487, 0.0 ] } }
]
}
